City_ID,City,Country,Lat,Lng,Max Temp,Humidity,Cloudiness,Wind Speed,Current Description
0,Sorong,ID,-0.8833,131.25,79.03,84,100,1.03,overcast clouds
1,Kaitangata,NZ,-46.2817,169.8464,64.99,76,42,1.99,scattered clouds
2,Cape Town,ZA,-33.9258,18.4232,66.99,77,0,1.14,clear sky
3,Huarmey,PE,-10.0681,-78.1522,71.02,82,94,8.63,overcast clouds
4,Victoria,HK,22.2855,114.1577,78.01,87,26,7.09,scattered clouds
5,Hilo,US,19.7297,-155.09,73.4,73,90,9.13,moderate rain
6,East London,ZA,-33.0153,27.9116,65.16,78,100,13.49,overcast clouds
7,Nago,JP,26.5881,127.9761,73.4,94,75,5.75,mist
8,Rikitea,PF,-23.1203,-134.9692,79.3,74,2,15.55,clear sky
9,Codrington,AU,-38.2667,141.9667,61.9,61,90,5.59,overcast clouds
10,Lanzhou,CN,36.0564,103.7922,48.0,27,35,1.05,scattered clouds
11,Asau,RO,46.4333,26.4,37.99,42,93,4.92,overcast clouds
12,Lompoc,US,34.6391,-120.4579,66.99,72,0,13.8,clear sky
13,Puerto Ayora,EC,-0.7393,-90.3518,79.0,91,33,4.0,scattered clouds
14,Vanimo,PG,-2.6741,141.3028,83.93,67,99,3.71,overcast clouds
15,Busselton,AU,-33.65,115.3333,67.5,55,10,5.66,clear sky
16,Bayir,TR,37.2687,28.2167,41.0,93,0,4.61,clear sky
17,Bandarbeyla,SO,9.4942,50.8122,76.12,72,24,3.87,few clouds
18,Albany,US,42.6001,-73.9662,52.0,80,100,17.0,light rain
19,Tarauaca,BR,-8.1614,-70.7656,73.9,96,90,2.17,overcast clouds
20,Upernavik,GL,72.7868,-56.1549,-24.74,78,23,4.83,few clouds
21,Yellowknife,CA,62.456,-114.3525,24.8,46,75,20.71,broken clouds
22,Ishigaki,JP,24.3448,124.1572,77.0,100,75,3.44,broken clouds
23,Ponta Do Sol,PT,32.6667,-17.1,61.0,53,71,8.01,broken clouds
24,Mataura,NZ,-46.1927,168.8643,62.01,89,33,11.99,scattered clouds
25,Mitsamiouli,KM,-11.3847,43.2844,82.53,70,64,5.73,broken clouds
26,New Norfolk,AU,-42.7826,147.0587,57.99,58,73,1.01,broken clouds
27,Nhulunbuy,AU,-12.2333,136.7667,82.4,83,75,5.75,moderate rain
28,Maceio,BR,-9.6658,-35.7353,77.0,94,90,5.75,overcast clouds
29,Atuona,PF,-9.8,-139.0333,80.96,75,91,16.53,overcast clouds
30,Provideniya,RU,64.3833,-173.3,15.67,88,100,21.85,light snow
31,Thompson,CA,55.7435,-97.8558,26.6,59,90,6.91,snow
32,Bredasdorp,ZA,-34.5322,20.0403,60.8,88,100,13.8,overcast clouds
33,Bluff,NZ,-46.6,168.3333,62.01,89,76,11.99,broken clouds
34,Zapolyarnyy,RU,69.4154,30.8136,30.2,86,98,10.36,overcast clouds
35,Swan Hill,AU,-35.3378,143.5544,66.74,51,0,7.81,clear sky
36,Bilma,NE,18.6853,12.9164,69.55,15,0,4.92,clear sky
37,Balkhash,KZ,46.844,74.9804,30.79,81,33,7.45,scattered clouds
38,Roebourne,AU,-20.7833,117.1333,89.76,42,65,9.35,broken clouds
39,Ushuaia,AR,-54.8,-68.3,46.4,57,75,11.5,broken clouds
40,Sinegorskiy,RU,48.0139,40.8447,34.36,84,67,3.74,light snow
41,Narsaq,GL,60.9167,-46.05,19.4,53,0,4.61,clear sky
42,Mahebourg,MU,-20.4081,57.7,75.2,88,20,5.75,few clouds
43,Barrow,US,71.2906,-156.7887,-11.2,64,1,13.8,clear sky
44,Jamestown,US,42.097,-79.2353,39.0,93,90,21.54,mist
45,Nuuk,GL,64.1835,-51.7216,8.6,61,20,11.5,few clouds
46,Faanui,PF,-16.4833,-151.75,82.76,72,45,20.07,scattered clouds
47,Geraldton,AU,-28.7667,114.6,69.8,73,12,5.75,few clouds
48,Luderitz,NA,-26.6481,15.1594,61.29,85,0,4.92,clear sky
49,Sabha,LY,27.0377,14.4283,58.28,27,7,12.77,clear sky
50,Butaritari,KI,3.0707,172.7902,81.01,79,81,14.14,light rain
51,Lebu,CL,-37.6167,-73.65,55.99,93,2,11.83,clear sky
52,Toora-Khem,RU,52.4675,96.11,23.83,95,100,0.6,overcast clouds
53,Dawlatabad,AF,36.4141,64.9053,45.66,74,100,7.92,overcast clouds
54,Libertador General San Martin,AR,-23.8064,-64.7876,66.99,85,95,0.11,overcast clouds
55,San Juan,AR,-31.5375,-68.5364,70.39,24,0,9.66,clear sky
56,Aksaray,TR,38.3726,34.0254,28.4,93,0,6.91,clear sky
57,Bambous Virieux,MU,-20.3428,57.7575,75.99,88,20,5.75,few clouds
58,Rio Brilhante,BR,-21.8019,-54.5464,78.37,66,77,9.51,broken clouds
59,Kapaa,US,22.0752,-159.319,77.0,69,90,16.11,overcast clouds
60,Cockburn Town,TC,21.4612,-71.1419,78.8,69,40,17.27,scattered clouds
61,Punta Arenas,CL,-53.15,-70.9167,46.0,70,0,6.91,clear sky
62,Vaini,TO,-21.2,-175.2,84.2,79,40,10.36,scattered clouds
63,Pisco,PE,-13.7,-76.2167,69.8,73,0,19.57,clear sky
64,Salalah,OM,17.0151,54.0924,75.2,50,0,4.61,clear sky
65,Hithadhoo,MV,-0.6,73.0833,78.85,85,100,32.06,moderate rain
66,Bengkulu,ID,-3.8004,102.2655,76.44,90,98,3.47,overcast clouds
67,Saint George,US,37.1041,-113.5841,75.0,16,1,8.05,clear sky
68,Hurghada,EG,27.2574,33.8129,60.8,44,0,17.27,clear sky
69,Payo,ID,-3.7508,103.6372,73.13,97,99,0.98,overcast clouds
70,Noboribetsu,JP,42.4514,141.1731,46.4,100,90,11.5,fog
71,Ancud,CL,-41.8697,-73.8203,62.6,72,0,12.66,clear sky
72,La Fleche,FR,47.6982,-0.0755,44.01,87,0,3.56,clear sky
73,Kruisfontein,ZA,-34.0033,24.7314,62.01,78,93,3.0,overcast clouds
74,Qaqortoq,GL,60.7167,-46.0333,19.4,53,0,4.61,clear sky
75,Hobart,AU,-42.8794,147.3294,57.99,44,75,12.66,broken clouds
76,Khatanga,RU,71.9667,102.5,-2.67,97,100,7.72,overcast clouds
77,Hermanus,ZA,-34.4187,19.2345,64.99,79,100,8.01,overcast clouds
78,Hasaki,JP,35.7333,140.8333,63.0,94,75,3.44,broken clouds
79,Yaan,NG,7.3833,8.5667,87.94,16,37,4.0,scattered clouds
80,Katsuura,JP,35.1333,140.3,66.0,88,20,3.44,few clouds
81,Arbazh,RU,57.6804,48.3065,16.66,97,11,2.89,few clouds
82,Dingle,PH,10.9995,122.6711,81.3,78,100,8.57,overcast clouds
83,Saint-Philippe,RE,-21.3585,55.7679,75.2,78,16,5.75,few clouds
84,Tuktoyaktuk,CA,69.4541,-133.0374,-13.0,77,90,12.66,snow
85,Airai,TL,-8.9266,125.4092,61.12,98,100,2.48,heavy intensity rain
86,Nemuro,JP,43.3236,145.575,46.4,100,75,6.91,moderate rain
87,Avarua,CK,-21.2078,-159.775,82.4,83,75,16.11,broken clouds
88,Videira,BR,-27.0083,-51.1517,64.35,99,37,1.25,scattered clouds
89,Lucapa,AO,-8.4192,20.7447,64.47,99,100,2.37,moderate rain
90,Vila Velha,BR,-20.3297,-40.2925,75.99,88,0,3.44,clear sky
91,Klaksvik,FO,62.2266,-6.589,41.0,87,20,12.66,few clouds
92,Chokurdakh,RU,70.6333,147.9167,-2.9,96,98,5.21,overcast clouds
93,Burgeo,CA,47.6167,-57.6152,19.33,80,61,8.79,broken clouds
94,Camopi,GF,3.1655,-52.3158,72.27,99,98,2.57,overcast clouds
95,Saskylakh,RU,71.9167,114.0833,-1.62,97,99,3.4,overcast clouds
96,Mar Del Plata,AR,-38.0023,-57.5575,66.0,88,40,11.5,scattered clouds
97,Leningradskiy,RU,69.3833,178.4167,-3.35,91,100,5.59,overcast clouds
98,Severo-Kurilsk,RU,50.6789,156.125,30.27,71,6,7.31,clear sky
99,Georgetown,MY,5.4112,100.3354,80.01,94,20,5.35,light rain
100,Petropavlovsk-Kamchatskiy,RU,53.0452,158.6483,28.4,46,66,17.9,broken clouds
101,Fortuna,US,40.5982,-124.1573,52.0,87,75,16.11,broken clouds
102,Esperance,AU,-33.8667,121.9,68.0,68,0,13.8,clear sky
103,Tambopata,PE,-12.7333,-69.1833,69.98,99,100,1.01,overcast clouds
104,Clyde River,CA,70.4692,-68.5914,-5.8,84,40,4.61,scattered clouds
105,Kamenskiy,RU,50.8855,45.488,28.04,95,96,9.84,overcast clouds
106,Tual,ID,-5.6667,132.75,81.32,82,100,11.34,overcast clouds
107,Komsomolskiy,UZ,40.4272,71.7189,50.0,62,75,18.41,moderate rain
108,Sherpur,BD,25.0188,90.0175,70.5,55,0,7.23,clear sky
109,Cherskiy,RU,68.75,161.3,-0.2,83,99,4.05,overcast clouds
110,Nyanguge,TZ,-2.55,33.2,67.8,78,43,6.26,light rain
111,Kupang,ID,-10.1667,123.5833,77.0,100,90,6.91,overcast clouds
112,Dunedin,NZ,-45.8742,170.5036,61.0,92,29,4.0,scattered clouds
113,Cabo San Lucas,MX,22.8909,-109.9124,77.0,29,40,17.27,scattered clouds
114,Hami,CN,42.8,93.45,57.11,27,87,9.69,overcast clouds
115,Samarai,PG,-10.6167,150.6667,84.07,74,87,11.3,overcast clouds
116,Alofi,NU,-19.0595,-169.9187,82.4,78,6,18.41,light rain
117,Camas,ES,37.402,-6.0331,62.01,63,0,4.61,clear sky
118,Paamiut,GL,61.994,-49.6678,6.8,79,1,9.69,clear sky
119,Aksu,CN,41.1231,80.2644,53.26,44,86,2.55,overcast clouds
120,Zhangjiakou,CN,40.81,114.8794,39.38,22,94,4.88,overcast clouds
121,Kumano,JP,34.3442,132.5894,60.01,72,75,4.61,sand
122,Bethel,US,41.3712,-73.414,57.99,98,100,15.77,overcast clouds
123,Inhambane,MZ,-23.865,35.3833,71.55,81,3,12.08,light rain
124,Namibe,AO,-15.1961,12.1522,73.6,76,37,3.2,light rain
125,Tura,IN,25.5198,90.2201,71.53,26,0,4.94,clear sky
126,Boguchany,RU,58.3814,97.4531,29.12,97,100,2.86,light snow
127,Flinders,AU,-34.5833,150.8552,73.0,58,3,3.0,clear sky
128,Bundaberg,AU,-24.85,152.35,81.0,69,89,8.05,overcast clouds
129,Praxedis Guerrero,MX,31.3667,-106.0167,70.0,17,1,8.05,clear sky
130,Tasiilaq,GL,65.6145,-37.6368,19.4,49,20,9.22,few clouds
131,Hambantota,LK,6.1241,81.1185,76.41,79,87,4.21,overcast clouds
132,Nikolskoye,RU,59.7035,30.7861,39.2,87,0,2.24,light rain
133,Tashla,RU,51.7716,52.7427,28.44,92,100,9.1,light snow
134,Vila,PT,42.0304,-8.1588,52.0,59,5,3.0,clear sky
135,Arraial Do Cabo,BR,-22.9661,-42.0278,77.81,88,56,8.25,broken clouds
136,Longyearbyen,SJ,78.2186,15.6401,28.4,74,20,2.3,few clouds
137,Floro,NO,61.5996,5.0328,42.8,70,90,19.57,overcast clouds
138,Lodja,CD,-3.4833,23.4333,68.79,98,43,2.39,moderate rain
139,Tari,NG,12.4086,4.4914,77.81,14,0,12.66,clear sky
140,Necochea,AR,-38.5473,-58.7368,57.99,95,16,8.03,few clouds
141,Karratha,AU,-20.7377,116.8463,89.91,42,73,10.6,broken clouds
142,Sharlyk,RU,52.9167,54.75,19.45,94,94,3.33,overcast clouds
143,Carnarvon,AU,-24.8667,113.6333,78.8,89,0,5.75,clear sky
144,Virginia Beach,US,36.8529,-75.978,73.4,64,90,14.97,overcast clouds
145,Belaya Gora,RU,68.5333,146.4167,4.33,89,76,3.69,broken clouds
146,Avera,US,33.194,-82.5271,64.4,78,1,4.61,clear sky
147,El Tigre,VE,8.8875,-64.2454,81.1,57,74,13.27,broken clouds
148,Pokaran,IN,26.9167,71.9167,78.49,29,35,17.6,scattered clouds
149,Preeceville,CA,51.95,-102.6677,35.83,92,60,6.58,broken clouds
150,Saldanha,ZA,-33.0117,17.9442,62.6,59,100,3.44,overcast clouds
151,Comodoro Rivadavia,AR,-45.8667,-67.5,57.2,77,0,9.22,clear sky
152,Qaanaaq,GL,77.484,-69.3632,-20.81,75,66,5.91,broken clouds
153,Kaohsiung,TW,22.6163,120.3133,78.01,78,20,4.61,few clouds
154,Bar Harbor,US,44.3876,-68.2039,41.0,93,90,11.5,light rain
155,Iqaluit,CA,63.7506,-68.5145,12.2,79,75,12.66,light snow
156,Korla,CN,41.7597,86.1469,55.81,41,100,9.26,overcast clouds
157,Srednekolymsk,RU,67.45,153.6833,2.5,89,100,5.23,overcast clouds
158,Castro,BR,-24.7911,-50.0119,64.72,91,99,4.72,overcast clouds
159,Mingyue,CN,43.1069,128.9217,39.79,65,30,14.2,scattered clouds
160,Grindavik,IS,63.8424,-22.4338,28.4,80,75,13.8,light snow
161,Quatre Cocos,MU,-20.2078,57.7625,75.99,88,20,5.75,few clouds
162,Matara,LK,5.9485,80.5353,74.14,86,75,5.01,broken clouds
163,Baruun-Urt,MN,46.6806,113.2792,29.52,43,3,6.31,clear sky
164,Mali,GN,12.079,-12.2982,71.17,20,1,2.62,clear sky
165,Pochutla,MX,15.7432,-96.4661,87.8,45,1,17.27,clear sky
166,Port Hedland,AU,-20.3167,118.5667,84.2,61,22,5.75,few clouds
167,Lewistown,US,40.5992,-77.5714,53.6,47,20,17.27,few clouds
168,Oda,JP,35.1833,132.5,60.8,67,75,5.75,broken clouds
169,Gladstone,AU,-23.85,151.25,82.4,47,40,11.5,scattered clouds
170,Sao Sebastiao,BR,-23.76,-45.4097,77.2,88,79,5.39,light rain
171,Tessalit,ML,20.1986,1.0114,71.26,11,0,14.79,clear sky
172,Xiangfan,CN,32.0422,112.1448,62.19,84,17,1.39,few clouds
173,Matamoros,MX,25.5333,-103.25,75.2,31,75,23.02,dust
174,Shimoda,JP,34.6667,138.95,69.01,88,20,8.05,few clouds
175,Vardo,NO,70.3705,31.1107,33.93,88,58,14.54,broken clouds
176,Vestmannaeyjar,IS,63.4427,-20.2734,33.06,90,74,16.64,light snow
177,Ilulissat,GL,69.2167,-51.1,-11.2,44,1,1.14,clear sky
178,San Quintin,MX,30.4833,-115.95,68.95,40,0,13.85,clear sky
179,Seoul,KR,37.5683,126.9778,51.8,87,75,3.44,dust
180,Yulara,AU,-25.2406,130.9889,75.2,46,0,11.5,clear sky
181,Ribeira Grande,PT,38.5167,-28.7,60.37,84,100,22.84,overcast clouds
182,Aklavik,CA,68.2191,-135.0107,-4.0,54,50,4.61,scattered clouds
183,Port Alfred,ZA,-33.5906,26.891,65.08,78,100,20.31,overcast clouds
184,Lata,PT,40.1629,-8.3327,57.0,68,58,3.85,broken clouds
185,Quelimane,MZ,-17.8786,36.8883,78.01,88,75,9.22,light intensity drizzle
186,Shingu,JP,33.7333,135.9833,60.8,72,40,9.22,scattered clouds
187,Rio Gallegos,AR,-51.6226,-69.2181,48.2,61,0,3.44,clear sky
188,Aripuana,BR,-9.1667,-60.6333,73.09,97,76,1.95,moderate rain
189,Bend,US,44.0582,-121.3153,60.8,25,20,12.66,few clouds
190,Jimeta,NG,9.2833,12.4667,81.84,17,8,3.71,clear sky
191,Cap Malheureux,MU,-19.9842,57.6142,75.99,83,3,3.38,clear sky
192,Pampas,PE,-12.4,-74.9,50.92,95,98,4.74,overcast clouds
193,Guerrero,MX,17.6667,-100.0,84.87,25,2,4.18,clear sky
194,Ambon,ID,-3.6954,128.1814,80.6,83,20,5.75,few clouds
195,Russell,US,32.3502,-85.1999,62.6,72,75,12.66,broken clouds
196,Kiunga,PG,-6.1219,141.2906,75.61,91,100,2.84,overcast clouds
197,Okoneshnikovo,RU,54.8377,75.0834,25.59,96,100,8.61,light snow
198,Port Lincoln,AU,-34.7333,135.8667,66.16,71,3,9.86,clear sky
199,Yerbogachen,RU,61.2767,108.0108,17.98,99,100,2.55,overcast clouds
200,Port Blair,IN,11.6667,92.75,80.06,76,56,2.77,broken clouds
201,Tiksi,RU,71.6872,128.8694,5.13,93,100,1.36,overcast clouds
202,Saint-Pierre,RE,-21.3393,55.4781,75.2,78,4,5.75,clear sky
203,Tuatapere,NZ,-46.1333,167.6833,62.01,89,72,11.99,broken clouds
204,Inta,RU,66.0317,60.1659,-3.69,99,65,2.95,broken clouds
205,Panzhihua,CN,26.5851,101.7128,57.0,46,68,3.02,broken clouds
206,Markova,UA,48.6758,24.4138,27.66,85,30,6.17,scattered clouds
207,Pacific Grove,US,36.6177,-121.9166,62.6,51,1,3.44,clear sky
208,Saint-Augustin,CA,51.226,-58.6502,6.82,85,37,5.32,scattered clouds
209,Kudahuvadhoo,MV,2.6708,72.8944,79.72,82,100,7.61,heavy intensity rain
210,Dikson,RU,73.5069,80.5464,-27.63,100,96,7.25,overcast clouds
211,Cayenne,GF,4.9333,-52.3333,80.6,78,75,10.36,broken clouds
212,Ketchikan,US,55.3422,-131.6461,42.8,56,20,10.36,few clouds
213,Honningsvag,NO,70.9821,25.9704,33.3,72,86,12.59,overcast clouds
214,Hualmay,PE,-11.0964,-77.6139,69.85,84,80,8.48,broken clouds
215,Castelldefels,ES,41.2779,1.9703,54.0,76,0,6.91,clear sky
216,Dunda,TZ,-8.1167,34.25,63.19,98,85,2.28,light rain
217,Mazagao,BR,-0.115,-51.2894,82.4,94,75,3.44,broken clouds
218,Chuy,UY,-33.6971,-53.4616,63.36,92,45,4.54,scattered clouds
219,Orocue,CO,4.7912,-71.3354,79.38,72,96,8.23,overcast clouds
220,Marrakesh,MA,31.6315,-8.0083,75.2,23,75,10.36,broken clouds
221,Arlit,NE,18.7369,7.3853,68.23,14,0,7.87,clear sky
222,Husavik,IS,66.0449,-17.3389,32.0,64,75,21.85,light snow
223,Jinchang,CN,38.4953,102.1739,42.66,35,28,1.3,scattered clouds
224,Tanout,NE,14.9709,8.8879,68.58,14,0,14.18,clear sky
225,Ostrovnoy,RU,68.0531,39.5131,35.49,97,100,10.74,overcast clouds
226,Adrar,MR,20.5022,-10.0711,79.38,8,85,10.87,overcast clouds
227,Marzuq,YE,14.4,46.4667,63.77,27,1,5.01,clear sky
228,Morro Bay,US,35.3658,-120.8499,79.0,40,1,16.11,clear sky
229,Wuan,CN,31.6836,112.0044,62.46,85,2,1.86,clear sky
230,Awbari,LY,26.5921,12.7805,57.81,22,0,9.24,clear sky
231,Mazatlan,MX,23.2167,-106.4167,77.0,50,75,10.36,broken clouds
232,Chernyshevskiy,RU,63.0128,112.4714,19.38,95,100,3.49,light snow
233,Meadow Lake,US,34.8014,-106.5436,68.0,17,1,4.61,clear sky
234,Sola,VU,-13.8833,167.55,84.2,89,90,5.75,overcast clouds
235,Okha,RU,53.5739,142.9478,30.56,88,100,12.24,overcast clouds
236,Prince Rupert,CA,54.3161,-130.3201,41.0,60,40,13.8,scattered clouds
237,Kavieng,PG,-2.5744,150.7967,85.68,67,93,13.96,light rain
238,Gorin,RU,51.1983,136.6669,32.2,83,100,6.13,overcast clouds
239,Sur,OM,22.5667,59.5289,82.74,37,79,5.37,broken clouds
240,Susehri,TR,40.1644,38.0867,19.94,88,35,1.99,scattered clouds
241,Lorengau,PG,-2.0226,147.2712,83.77,77,100,9.73,overcast clouds
242,Port-Gentil,GA,-0.7193,8.7815,75.2,94,90,18.41,moderate rain
243,Havre-Saint-Pierre,CA,50.2334,-63.5986,28.4,69,90,12.66,overcast clouds
244,Chingirlau,KZ,51.095,54.0814,28.36,94,100,9.44,light snow
245,Thunder Bay,CA,48.4001,-89.3168,32.0,47,40,13.8,scattered clouds
246,Pevek,RU,69.7008,170.3133,-11.2,95,71,4.38,broken clouds
247,Kholm,RU,59.2667,32.85,37.49,94,100,8.55,light rain
248,Merauke,ID,-8.4667,140.3333,78.19,89,100,9.26,overcast clouds
249,Vostok,RU,46.4856,135.8833,36.18,90,100,3.85,light rain
250,Connersville,US,39.6412,-85.1411,43.0,57,71,15.59,broken clouds
251,Misawa,JP,40.6836,141.3597,55.4,76,40,9.22,light rain
252,Zhangzhou,CN,24.5133,117.6556,68.0,77,90,6.71,overcast clouds
253,Teya,RU,60.3778,92.6267,14.36,98,100,1.03,overcast clouds
254,Hovd,MN,48.0056,91.6419,34.2,59,84,3.42,snow
255,Pemberton,CA,50.3164,-122.8027,35.01,93,90,3.44,overcast clouds
256,Mandalgovi,MN,45.7625,106.2708,31.06,31,0,6.89,clear sky
257,Biak,ID,-0.9131,122.8766,78.03,84,100,3.6,overcast clouds
258,Urumqi,CN,43.801,87.6005,48.2,81,75,4.47,broken clouds
259,San Vicente,AR,-26.6167,-54.1333,65.34,95,87,1.79,overcast clouds
260,Bull Savanna,JM,17.8868,-77.5902,75.04,79,13,10.71,few clouds
261,Acarau,BR,-2.8856,-40.12,77.43,83,9,6.02,clear sky
262,Barra Do Bugres,BR,-15.0725,-57.1811,75.97,79,31,2.35,scattered clouds
263,Sitka,US,57.0531,-135.33,39.2,48,20,16.11,few clouds
264,Udachnyy,RU,66.4167,112.4,13.32,96,100,4.97,overcast clouds
265,Souillac,MU,-20.5167,57.5167,75.2,88,20,5.75,few clouds
266,Buala,SB,-8.145,159.5921,85.12,69,20,7.85,light rain
267,Hervey Bay,AU,-25.2986,152.8535,78.01,74,100,1.01,overcast clouds
268,Khovu-Aksy,RU,51.1333,93.6,22.77,83,100,1.9,overcast clouds
269,The Valley,AI,18.217,-63.0578,78.8,83,40,13.8,scattered clouds
270,Hobyo,SO,5.3505,48.5268,79.43,79,61,11.01,broken clouds
271,Vila Franca Do Campo,PT,37.7167,-25.4333,59.0,82,75,11.5,broken clouds
272,Ahipara,NZ,-35.1667,173.1667,71.44,81,46,7.47,light rain
273,Acapulco,MX,16.8634,-99.8901,82.4,69,1,10.36,clear sky
274,El Alto,PE,-4.2714,-81.2147,70.92,73,58,8.88,broken clouds
275,Kahului,US,20.8947,-156.47,77.0,61,40,18.41,scattered clouds
276,Sisimiut,GL,66.9395,-53.6735,0.86,68,34,12.19,scattered clouds
277,Nome,US,64.5011,-165.4064,19.99,93,90,29.93,snow
278,Nadym,RU,65.5333,72.5167,-12.69,99,78,9.82,broken clouds
279,Puerto Baquerizo Moreno,EC,-0.9,-89.6,77.86,77,21,4.72,few clouds
280,Ampanihy,MG,-24.7,44.75,67.55,94,0,3.56,light rain
281,Ranong,TH,9.9658,98.6348,77.0,94,20,2.39,few clouds
282,Alamosa,US,37.4695,-105.87,59.0,17,1,3.13,clear sky
283,Novyy Urengoy,RU,66.0833,76.6333,-11.15,99,83,9.86,broken clouds
284,Hollister,US,36.8525,-121.4016,79.0,25,1,20.71,clear sky
285,Sistranda,NO,63.7256,8.834,41.0,87,75,8.05,broken clouds
286,Baza,ES,37.4907,-2.7726,48.99,74,83,9.04,broken clouds
287,Timmins,CA,48.4669,-81.3331,26.6,86,90,23.02,snow
288,Hofn,IS,64.2539,-15.2082,27.5,62,27,10.11,scattered clouds
289,Oistins,BB,13.0667,-59.5333,78.8,69,40,21.85,scattered clouds
290,Trinidad,BO,-14.8333,-64.9,75.2,88,40,2.68,scattered clouds
291,Ossora,RU,59.2353,163.0719,15.73,65,38,3.38,scattered clouds
292,Constitucion,CL,-35.3333,-72.4167,57.15,68,0,0.31,clear sky
293,Berlevag,NO,70.8578,29.0864,30.76,79,74,12.03,broken clouds
294,Zaozerne,UA,45.1582,33.2787,45.0,67,45,16.37,scattered clouds
295,Ploemeur,FR,47.7333,-3.4333,46.99,93,90,3.44,fog
296,Dicabisagan,PH,17.0818,122.4157,81.19,76,85,3.4,overcast clouds
297,Norman Wells,CA,65.282,-126.8329,-0.4,55,75,19.57,broken clouds
298,Marystown,CA,47.1666,-55.1483,23.02,79,55,4.88,broken clouds
299,Nishihara,JP,26.1842,127.7558,73.4,94,75,3.67,mist
300,Fagernes,NO,60.9858,9.2324,29.61,97,92,3.22,overcast clouds
301,Byron Bay,AU,-28.65,153.6167,75.2,69,40,8.05,scattered clouds
302,Mabaruma,GY,8.2,-59.7833,73.15,98,77,5.14,broken clouds
303,Sarangani,PH,5.4033,125.4636,80.78,76,99,2.84,overcast clouds
304,Goderich,CA,43.7501,-81.7165,35.6,87,100,21.85,overcast clouds
305,Najran,SA,17.4924,44.1277,71.6,26,1,5.75,dust
306,Makokou,GA,0.5738,12.8642,69.84,98,42,2.91,moderate rain
307,Bozoum,CF,6.3193,16.3799,72.45,72,54,3.44,broken clouds
308,Chapais,CA,49.7834,-74.8492,30.2,93,90,10.36,light snow
309,Port Elizabeth,ZA,-33.918,25.5701,64.4,77,0,16.11,clear sky
310,Batagay,RU,67.6333,134.6333,6.28,93,100,2.26,overcast clouds
311,Tsabong,BW,-26.0217,22.401,70.12,23,1,7.4,clear sky
312,Pangnirtung,CA,66.1451,-65.7125,-0.76,96,100,2.55,overcast clouds
313,Nouadhibou,MR,20.931,-17.0347,64.4,88,0,14.97,clear sky
314,Bolshaya Glushitsa,RU,50.2406,43.5908,27.0,91,74,1.99,broken clouds
315,Bodden Town,KY,19.2833,-81.25,82.4,74,20,10.36,few clouds
316,Fairbanks,US,64.8378,-147.7164,21.0,42,40,6.91,scattered clouds
317,Ust-Kuyga,RU,70.0167,135.6,8.47,94,100,4.94,overcast clouds
318,Koumac,NC,-20.5667,164.2833,84.11,66,43,7.7,scattered clouds
319,Alihe,CN,50.5667,123.7167,34.95,98,100,4.68,light snow
320,Honiara,SB,-9.4333,159.95,88.07,59,26,6.51,scattered clouds
321,Miyako,JP,39.6367,141.9525,53.98,96,100,7.9,overcast clouds
322,Rocha,UY,-34.4833,-54.3333,61.72,95,77,3.85,broken clouds
323,Pangai,TO,-19.8,-174.35,86.0,74,20,18.41,few clouds
324,Isangel,VU,-19.55,169.2667,84.2,79,40,8.05,scattered clouds
325,San Cristobal,VE,7.7669,-72.225,68.27,84,89,2.91,overcast clouds
326,Obo,CF,5.3998,26.4869,72.63,43,30,3.76,scattered clouds
327,Akrini,GR,40.4333,21.9,54.0,50,11,8.05,few clouds
328,Krasnogorsk,RU,55.8225,37.3181,33.8,74,0,6.71,clear sky
329,Kampot,KH,10.6167,104.1833,77.0,94,40,1.14,scattered clouds
330,Greenfield,US,42.9614,-88.0126,41.0,38,1,14.97,clear sky
331,Trairi,BR,-3.2778,-39.2689,76.37,84,4,3.06,clear sky
332,Gayny,RU,60.3071,54.3241,28.89,94,100,7.29,overcast clouds
333,Corum,TR,40.5,34.75,36.19,69,8,2.48,clear sky
334,Buritis,BR,-15.6178,-46.4233,72.81,53,32,2.17,scattered clouds
335,Ichhawar,IN,23.0167,77.0167,68.0,45,5,4.61,clear sky
336,Bato,PH,13.3528,123.3677,80.67,78,100,2.26,overcast clouds
337,Greencastle,US,39.6445,-86.8647,45.0,56,90,13.8,overcast clouds
338,Zeerust,ZA,-25.5369,26.0751,64.4,77,55,16.11,broken clouds
339,Stokmarknes,NO,68.5646,14.9108,35.24,71,100,8.37,overcast clouds
340,Filadelfia,US,39.9523,-75.1638,57.2,88,90,11.5,mist
341,Dzerzhinsk,RU,56.2389,43.4631,19.4,79,0,3.96,clear sky
342,Pachino,IT,36.7186,15.0907,42.8,100,0,3.44,clear sky
343,Kodiak,US,57.79,-152.4072,44.6,57,1,14.97,clear sky
344,Kirakira,SB,-10.4544,161.9205,86.63,65,61,5.53,moderate rain
345,Barreiras,BR,-12.1528,-44.99,79.39,39,79,1.21,broken clouds
346,Mecca,SA,21.4267,39.8261,73.11,58,0,5.48,clear sky
347,Kitimat,CA,54.0524,-128.6534,41.0,52,75,13.8,light snow
348,Broome,US,42.2506,-75.833,48.0,81,75,6.91,light rain
349,Guerrero Negro,MX,27.9769,-114.0611,78.17,28,29,11.1,scattered clouds
350,Praya,CV,14.9215,-23.5087,68.0,73,20,23.02,few clouds
351,Cracow,US,43.7424,-82.8199,37.4,75,90,18.41,overcast clouds
352,Sabla,NG,12.7525,4.7077,76.55,14,0,11.99,clear sky
353,Cidreira,BR,-30.1811,-50.2056,73.24,83,30,5.3,scattered clouds
354,Skjervoy,NO,70.0311,20.9714,33.33,75,72,13.62,broken clouds
355,Chicama,PE,-7.8447,-79.1469,73.99,71,75,6.44,broken clouds
356,Kavaratti,IN,10.5669,72.642,82.98,71,100,1.5,overcast clouds
357,Khuzhir,RU,53.1939,107.3397,19.56,89,87,7.49,overcast clouds
358,Seymchan,RU,62.8833,152.4333,0.64,81,100,1.81,overcast clouds
359,Henties Bay,NA,-22.116,14.2845,60.01,90,0,3.0,clear sky
360,Banagher,IE,53.1886,-7.9867,55.0,85,100,8.01,overcast clouds
361,Menzelinsk,RU,55.7271,53.1026,30.2,43,0,4.47,clear sky
362,Bongaree,AU,-27.0797,153.1586,81.0,70,1,8.72,clear sky
363,Soyo,AO,-6.1349,12.3689,80.78,77,100,4.36,overcast clouds
364,Mangai,CD,-4.05,19.5333,70.47,97,70,1.92,moderate rain
365,Keningau,MY,5.3378,116.1602,80.6,83,20,3.44,few clouds
366,Kontagora,NG,10.3999,5.4695,82.65,14,5,8.84,clear sky
367,Cacule,BR,-14.5033,-42.2222,69.39,42,12,1.5,few clouds
368,Ballina,AU,-28.8667,153.5667,75.2,69,40,8.05,scattered clouds
369,Naryan-Mar,RU,67.6713,53.087,33.66,93,100,10.78,overcast clouds
370,Beira,MZ,-19.8436,34.8389,78.8,78,40,13.8,scattered clouds
371,Chongoyape,PE,-6.6406,-79.3892,71.6,78,0,17.27,clear sky
372,Lumberton,US,34.6182,-79.0086,70.0,56,1,20.71,clear sky
373,Arman,RU,59.7,150.1667,11.61,80,30,1.36,scattered clouds
374,Urdoma,RU,61.7533,48.5442,26.98,96,100,5.06,overcast clouds
375,Mancio Lima,BR,-7.6142,-72.8958,73.76,97,93,2.3,heavy intensity rain
376,Maine-Soroa,NE,13.2114,12.0241,74.75,18,0,15.43,clear sky
377,Bunbury,AU,-33.3333,115.6333,69.96,40,6,5.44,clear sky
378,Harnosand,SE,62.6323,17.9379,35.01,100,90,2.3,fog
379,Tautira,PF,-17.7333,-149.15,89.6,58,40,18.41,light rain
380,Tigil,RU,57.8,158.6667,23.13,89,100,20.42,light snow
381,Port Augusta,AU,-32.5,137.7667,69.8,64,0,6.91,clear sky
382,Nyurba,RU,63.2842,118.3319,16.32,94,92,4.54,overcast clouds
383,Gamba,GA,-2.65,10.0,76.24,91,100,5.5,overcast clouds
384,Touros,BR,-5.1989,-35.4608,77.0,94,20,3.44,few clouds
385,Walvis Bay,NA,-22.9575,14.5053,60.01,94,0,8.05,clear sky
386,Mackay,AU,-21.15,149.2,82.99,65,75,10.36,broken clouds
387,Sumbe,AO,-11.2061,13.8437,76.93,81,22,3.87,few clouds
388,Lagoa,PT,39.05,-27.9833,59.45,82,100,16.62,overcast clouds
389,Kaeo,NZ,-35.1,173.7833,73.0,90,76,13.0,broken clouds
390,Homer,US,59.6425,-151.5483,36.0,51,90,3.44,overcast clouds
391,Dossor,KZ,47.5272,52.9811,38.79,90,99,4.94,overcast clouds
392,Talnakh,RU,69.4865,88.3972,-14.37,99,64,4.12,broken clouds
393,Santo Antonio Do Sudoeste,BR,-26.0736,-53.7253,67.71,95,88,2.19,overcast clouds
394,Rovaniemi,FI,66.5,25.7167,33.8,100,90,9.22,fog
395,Bairiki,KI,1.3292,172.9752,86.0,74,20,11.5,light rain
396,Coxim,BR,-18.5067,-54.76,79.07,38,3,1.32,clear sky
397,Matata,NZ,-37.8833,176.75,64.99,99,100,3.0,overcast clouds
398,Doha,QA,25.2867,51.5333,69.8,49,0,14.97,clear sky
399,Tsaratanana,MG,-16.7833,47.65,71.58,93,5,2.46,clear sky
400,Yar-Sale,RU,66.8333,70.8333,-17.81,100,13,7.47,few clouds
401,Camana,PE,-16.6228,-72.7111,71.4,84,75,6.33,broken clouds
402,Calvinia,ZA,-31.4707,19.776,67.15,22,30,4.85,scattered clouds
403,Kalianget,ID,-7.05,113.9333,81.63,79,99,2.46,light rain
404,Itoman,JP,26.1247,127.6694,73.4,88,75,2.3,broken clouds
405,Loukhi,RU,66.0764,33.0381,36.43,94,94,7.56,overcast clouds
406,Ixtapa,MX,20.7,-105.2,73.4,73,75,9.22,broken clouds
407,San Felipe,VE,10.3399,-68.7425,71.47,96,96,4.34,overcast clouds
408,New Smyrna Beach,US,29.0258,-80.927,80.6,50,1,11.5,clear sky
409,Kununurra,AU,-15.7667,128.7333,82.4,78,100,5.75,overcast clouds
410,Te Anau,NZ,-45.4167,167.7167,61.68,76,80,4.97,broken clouds
411,Tefe,BR,-3.3542,-64.7114,78.8,89,40,4.61,scattered clouds
412,Pundaguitan,PH,6.3711,126.1689,81.09,78,100,5.75,overcast clouds
413,Vargashi,RU,55.3556,65.8467,27.18,93,98,12.15,overcast clouds
414,Tanete,ID,-3.9443,119.7848,75.65,93,100,1.28,overcast clouds
415,Cartagena Del Chaira,CO,1.3349,-74.8429,73.56,96,94,4.05,overcast clouds
416,Nantucket,US,41.2835,-70.0995,52.0,99,100,32.1,fog
417,Wellington,NZ,-41.2866,174.7756,66.2,88,75,20.71,broken clouds
418,Sao Jose Da Coroa Grande,BR,-8.8978,-35.1478,78.78,80,90,6.2,overcast clouds
419,Lazi,UA,48.0667,24.2333,26.91,89,41,3.33,scattered clouds
420,Opuwo,NA,-18.0607,13.84,72.5,54,86,2.89,overcast clouds
421,Ust-Uda,RU,54.1742,103.0304,21.7,94,94,1.05,overcast clouds
422,Northam,GB,51.0333,-4.2167,50.0,93,69,17.0,broken clouds
423,Kamenka,RU,51.3223,42.7678,28.0,82,83,7.34,broken clouds
424,Springbok,ZA,-29.6643,17.8865,63.34,29,1,3.11,clear sky
425,Kargasok,RU,59.0556,80.8572,17.11,92,100,8.57,overcast clouds
426,Nuevo Imperial,PE,-13.0754,-76.3172,71.04,80,39,3.11,scattered clouds
427,Port Keats,AU,-14.25,129.55,81.68,73,100,8.43,overcast clouds
428,Foso,GH,5.7012,-1.2866,76.05,89,15,2.08,few clouds
429,Kaspiysk,RU,42.8816,47.6392,48.0,61,20,8.95,few clouds
430,Zhigansk,RU,66.7697,123.3711,8.42,96,100,4.54,overcast clouds
431,San Pedro,PH,14.35,121.0167,86.0,66,20,6.91,few clouds
432,Grand Gaube,MU,-20.0064,57.6608,75.99,82,3,3.51,clear sky
433,Ukiah,US,39.1502,-123.2078,75.2,19,1,10.36,clear sky
434,Shubarshi,KZ,48.5872,57.1869,27.97,96,100,6.6,overcast clouds
435,Zolotkovo,RU,55.5281,41.1053,24.55,96,21,3.89,few clouds
436,Biltine,TD,14.5333,20.9167,72.32,11,11,18.16,few clouds
437,Manacapuru,BR,-3.2997,-60.6206,75.2,100,40,3.96,scattered clouds
438,Vao,NC,-22.6667,167.4833,77.67,80,13,14.03,few clouds
439,Salar,ES,37.1499,-4.0191,55.99,58,0,2.3,clear sky
440,Benemerito De Las Americas,MX,16.5167,-90.6439,82.6,55,8,1.95,clear sky
441,Farrukhnagar,IN,17.0778,78.2011,77.0,65,5,4.61,clear sky
442,Sabang,ID,5.8933,95.3214,81.16,72,96,3.06,overcast clouds
443,Fairfield,US,41.2668,-73.3162,55.99,100,90,15.17,fog
444,Meridian,US,43.6121,-116.3915,78.8,14,1,5.75,clear sky
445,Hamilton,US,39.1834,-84.5333,45.0,49,75,18.41,broken clouds
446,Nokha,IN,27.6,73.4167,79.3,23,52,17.31,broken clouds
447,Dalby,AU,-27.1833,151.2667,74.8,48,0,1.66,clear sky
448,Lasa,IT,46.6166,10.7002,46.99,64,0,4.61,clear sky
449,Yerofey Pavlovich,RU,53.9667,121.9667,27.43,90,100,4.45,light snow
450,Bathsheba,BB,13.2167,-59.5167,78.8,69,40,21.85,scattered clouds
451,Sabzevar,IR,36.2126,57.6819,39.56,51,0,6.93,clear sky
452,Saiha,IN,22.4833,92.9667,63.7,34,95,3.83,overcast clouds
453,Elk Grove,US,38.4088,-121.3716,79.0,24,1,4.61,clear sky
454,Kamennomostskoye,RU,43.7372,43.0514,37.4,87,75,5.77,broken clouds
455,Atar,MR,20.5169,-13.0499,76.03,26,72,7.52,broken clouds
456,Deputatskiy,RU,69.3,139.9,7.7,89,100,2.75,overcast clouds
457,Rognan,NO,67.0953,15.3878,44.6,61,75,12.66,broken clouds
458,Abu Dhabi,AE,24.4667,54.3667,73.4,68,0,9.22,clear sky
459,Tommot,RU,58.9564,126.2925,23.7,93,100,3.6,light snow
460,Poum,NC,-20.2333,164.0167,80.69,74,3,4.72,clear sky
461,Winneba,GH,5.3511,-0.6231,79.47,86,39,5.95,scattered clouds
462,Richards Bay,ZA,-28.783,32.0377,67.48,77,80,3.96,broken clouds
463,Mezen,RU,65.8522,44.24,34.66,97,100,9.15,light rain
464,Mapiri,BO,-15.25,-68.1667,65.79,99,100,1.19,overcast clouds
465,College,US,64.8569,-147.8028,19.4,45,90,8.05,overcast clouds
466,Mount Pleasant,US,32.7941,-79.8626,69.01,94,90,13.73,overcast clouds
467,Tikrit,IQ,34.6071,43.6782,53.1,35,0,9.69,clear sky
468,Torbay,CA,47.6666,-52.7314,24.8,68,75,2.3,broken clouds
469,Pathein,MM,16.7833,94.7333,75.85,78,72,7.34,broken clouds
470,Samana,DO,19.2056,-69.3369,78.8,83,40,4.61,scattered clouds
471,Mayumba,GA,-3.432,10.6554,76.98,87,100,6.26,light rain
472,Great Yarmouth,GB,52.6083,1.7305,51.8,76,20,18.41,few clouds
473,Darnetal,FR,49.4453,1.1514,44.6,76,0,6.91,clear sky
474,Krasnoselkup,RU,65.7,82.4667,-7.96,98,10,10.51,clear sky
475,Bardiyah,LY,31.7561,25.0865,55.81,66,44,8.77,scattered clouds
476,Bilibino,RU,68.0546,166.4372,-5.49,85,67,2.68,broken clouds
477,Charters Towers,AU,-20.1,146.2667,80.56,53,69,14.54,broken clouds
478,Olutanga,PH,7.3106,122.8464,81.1,73,74,6.04,broken clouds
479,Tadine,NC,-21.55,167.8833,82.51,70,8,12.28,clear sky
480,Mogadishu,SO,2.0371,45.3438,80.11,86,98,14.94,overcast clouds
481,Praia,CV,14.9215,-23.5087,68.0,73,20,23.02,few clouds
482,Flin Flon,CA,54.7682,-101.865,33.8,69,90,11.5,overcast clouds
483,Beba,CU,22.4437,-79.7253,78.8,73,40,13.8,scattered clouds
484,Batemans Bay,AU,-35.7167,150.1833,70.0,62,6,1.99,clear sky
485,Darnah,LY,32.767,22.6367,56.57,71,24,11.36,few clouds
486,Waipawa,NZ,-41.4122,175.5153,64.4,94,90,20.71,moderate rain
487,Beloha,MG,-25.1667,45.05,68.43,92,7,4.36,light rain
488,Porto Santo,PT,33.072,-16.3415,62.6,88,75,9.22,broken clouds
489,Pringsewu,ID,-5.3582,104.9744,76.6,95,71,1.97,broken clouds
490,Abakaliki,NG,6.3163,8.1169,82.4,51,0,4.61,haze
491,Sao Filipe,CV,14.8961,-24.4956,69.89,72,28,14.38,scattered clouds
492,San Ramon,US,37.7799,-121.978,79.0,17,1,12.66,clear sky
493,Antsohihy,MG,-14.8796,47.9875,73.8,97,49,0.51,scattered clouds
494,Gotsu,JP,35.0,132.2167,60.8,77,50,11.5,scattered clouds
495,Havoysund,NO,70.9963,24.6622,30.2,69,0,5.75,clear sky
496,Ouegoa,NC,-20.35,164.4333,85.42,60,48,8.19,scattered clouds
497,Giaveno,IT,45.047,7.3492,51.01,80,9,1.01,clear sky
498,Ola,RU,59.5833,151.2833,9.27,80,67,0.6,broken clouds
499,Albina,SR,5.5,-54.05,75.15,89,90,4.21,light rain
500,Ulaangom,MN,49.9811,92.0667,16.43,83,92,3.74,overcast clouds
501,Guanhaes,BR,-18.775,-42.9325,67.68,86,10,1.83,clear sky
502,Areia Branca,BR,-4.9561,-37.1369,78.58,81,7,8.19,clear sky
503,Hirara,JP,24.8,125.2833,75.2,94,75,3.44,broken clouds
504,Petauke,ZM,-14.2426,31.3253,65.55,86,100,9.73,overcast clouds
505,Panaba,MX,21.2833,-88.2667,86.47,45,1,14.79,clear sky
506,Jumilla,ES,38.4792,-1.325,46.99,74,86,4.0,overcast clouds
507,Elko,US,41.0002,-115.5012,66.2,15,1,20.71,clear sky
508,Sechura,PE,-5.5569,-80.8222,77.02,61,70,15.57,broken clouds
509,Ulladulla,AU,-35.35,150.4667,68.0,60,20,6.91,few clouds
510,Lavrentiya,RU,65.5833,-171.0,13.17,92,100,19.53,light snow
511,Rumoi,JP,43.9344,141.6428,45.7,94,95,10.54,overcast clouds
512,Inuvik,CA,68.3499,-133.7218,-2.2,54,85,4.61,overcast clouds
513,Kingsland,US,30.8,-81.6898,79.0,62,100,1.01,overcast clouds
514,Roald,NO,62.5833,6.1333,42.8,65,75,12.66,broken clouds
515,Sharanga,RU,57.1775,46.5396,22.91,98,47,3.89,scattered clouds
516,Shahrud,IR,36.4182,54.9763,33.57,49,0,6.2,clear sky
517,Conceicao Do Araguaia,BR,-8.2578,-49.2647,75.92,88,93,1.61,overcast clouds
518,Gombong,ID,-7.6072,109.5142,78.04,86,79,2.64,broken clouds
519,Bjornevatn,NO,69.6672,29.9847,30.2,86,81,10.36,broken clouds
520,Cascais,PT,38.6979,-9.4215,64.99,59,0,6.91,clear sky
521,Astoria,US,46.1879,-123.8313,44.6,70,75,21.85,broken clouds
522,Raudeberg,NO,61.9875,5.1352,44.01,67,87,21.83,light rain
523,Porto Novo,BJ,6.4965,2.6036,82.4,83,20,6.91,few clouds
524,Banska Bystrica,SK,48.5,19.5,38.14,68,71,4.38,broken clouds
525,Santo Antonio Do Leverger,BR,-15.8656,-56.0767,82.4,78,0,9.22,clear sky
526,Manaure,CO,11.7751,-72.4445,80.31,69,96,22.66,overcast clouds
527,Serenje,ZM,-13.2325,30.2352,60.8,94,100,7.58,overcast clouds
528,Langsa,ID,4.4683,97.9683,74.52,93,79,1.5,light rain
529,Saint-Felix-De-Valois,CA,46.1668,-73.4324,48.2,93,100,10.36,light rain
530,Vengerovo,RU,55.6848,76.7471,25.27,97,100,2.57,light snow
531,Machilipatnam,IN,16.1667,81.1333,77.0,94,40,4.61,mist
532,Westport,US,41.1415,-73.3579,55.0,100,90,19.8,fog
533,Chute-Aux-Outardes,CA,49.1168,-68.399,28.4,100,90,24.16,snow
534,Antofagasta,CL,-23.65,-70.4,62.6,72,0,8.05,clear sky
535,Isabela,PH,6.7085,121.9711,86.0,79,75,1.14,light rain
536,Borba,BR,-4.3878,-59.5939,74.61,96,97,2.42,moderate rain
537,Peniche,PT,39.3558,-9.3811,59.0,80,46,6.76,scattered clouds
538,Wang Saphung,TH,17.301,101.7685,82.0,94,73,2.75,broken clouds
539,Nathdwara,IN,24.9333,73.8167,77.83,21,12,11.63,few clouds
540,Ambilobe,MG,-13.2,49.05,73.94,96,74,1.5,light rain
541,Severo-Yeniseyskiy,RU,60.3725,93.0408,12.33,98,100,0.63,overcast clouds
542,Solnechnyy,RU,50.7214,136.6319,31.95,88,100,6.11,overcast clouds
543,Bela Vista,BR,-22.1089,-56.5211,71.62,85,30,6.73,scattered clouds
544,Lincoln,US,40.8,-96.667,64.4,29,1,10.36,clear sky
545,Arica,CL,-18.475,-70.3042,66.2,77,0,5.75,clear sky
546,Wadi Musa,JO,30.3222,35.4793,44.44,66,0,1.99,clear sky
547,Kloulklubed,PW,7.0419,134.2556,77.0,100,90,3.44,heavy intensity rain
548,Graham,US,47.0529,-122.2943,43.0,100,90,6.91,light rain
549,Daru,PG,-9.0763,143.2092,81.12,87,100,9.55,overcast clouds
550,Ipixuna,BR,-1.7625,-48.8043,77.0,88,0,5.75,clear sky
551,Cuamba,MZ,-14.8031,36.5372,65.57,96,99,3.13,overcast clouds
552,Rabaul,PG,-4.1967,152.1721,82.13,68,98,0.87,overcast clouds
553,Grand Baie,MU,-20.0182,57.5802,75.99,83,3,3.36,clear sky
554,Saint Anthony,US,45.0205,-93.218,44.6,39,1,6.91,clear sky
555,Nusaybin,TR,37.0778,41.2178,37.4,70,0,11.5,clear sky
556,Puerto El Triunfo,SV,13.2833,-88.55,84.2,58,0,5.75,clear sky
557,Haines Junction,CA,60.7522,-137.5108,26.6,22,20,4.61,few clouds
558,Palmer,US,42.1584,-72.3287,55.0,100,90,3.44,mist
559,Ilmenau,DE,50.6833,10.9,48.2,61,0,10.36,clear sky
560,Sogne,NO,58.0833,7.8167,43.0,100,90,6.91,light rain
561,Santa Cruz Cabralia,BR,-16.2781,-39.0247,78.8,73,0,5.75,clear sky
562,Scarborough,GB,54.2797,-0.4044,55.0,81,100,8.01,light rain
563,Mormugao,IN,15.4,73.8,81.79,75,74,1.03,broken clouds
564,Murgab,TM,37.4966,61.9714,41.0,87,4,4.61,clear sky
565,Eyrarbakki,IS,63.863,-21.1481,28.4,80,40,14.97,scattered clouds
566,San Fernando,PH,15.0286,120.6898,84.2,70,40,4.61,scattered clouds
567,Lisakovsk,KZ,52.5369,62.4936,14.36,91,48,9.1,scattered clouds
568,Puerto Escondido,MX,15.85,-97.0667,84.2,70,1,9.22,clear sky
569,Diego De Almagro,CL,-26.3667,-70.05,63.97,42,0,2.42,clear sky
570,Shuiji,CN,27.4214,118.345,71.35,76,14,1.83,light rain
571,Watsa,CD,3.0372,29.5355,66.47,85,94,2.68,overcast clouds
572,Phitsanulok,TH,16.9167,100.5,82.4,69,0,8.05,clear sky
573,Yumen,CN,40.2833,97.2,43.02,52,48,10.49,scattered clouds
574,Bakchar,RU,57.0186,82.0711,22.46,98,100,2.62,overcast clouds
575,Forbes,AU,-33.3833,148.0167,65.34,50,3,7.2,clear sky
576,Ha Tinh,VN,18.3333,105.9,76.08,90,79,2.24,broken clouds
577,Nichinan,JP,31.6,131.3667,64.4,55,20,16.11,few clouds
578,Anadyr,RU,64.75,177.4833,12.2,85,40,26.84,snow
579,Cam Ranh,VN,11.9214,109.1591,77.0,78,0,2.3,clear sky
580,Iskateley,RU,67.6803,53.1512,33.1,93,100,10.71,overcast clouds
581,Cervo,ES,43.6702,-7.4101,53.51,70,0,6.06,clear sky
582,Troitskaya,RU,43.3056,44.9789,39.0,100,100,7.18,overcast clouds
583,Rosetta,EG,31.4044,30.4164,57.2,58,40,8.05,scattered clouds
584,Birjand,IR,32.8663,59.2211,42.8,33,0,4.61,clear sky
585,Port Hueneme,US,34.1478,-119.1951,73.99,55,1,16.11,clear sky
586,Sungaipenuh,ID,-2.0833,101.3833,65.89,96,100,0.47,heavy intensity rain
587,Namie,JP,37.4833,141.0,64.0,77,20,11.5,few clouds
588,Zarand,IR,30.8127,56.564,53.24,20,3,1.63,clear sky
589,Powell,US,40.1578,-83.0752,41.0,75,90,16.11,overcast clouds
590,Yantal,RU,56.8471,105.2542,27.84,96,100,3.15,light snow
591,Balikpapan,ID,-1.2675,116.8289,76.87,90,100,2.37,heavy intensity rain
592,Alpena,US,45.0617,-83.4327,34.0,86,90,14.97,mist
593,Hoopstad,ZA,-27.8327,25.9083,61.74,46,34,7.83,scattered clouds
594,Ler,SS,8.3018,30.1418,83.39,18,2,9.33,clear sky
595,San Isidro,PE,-12.1167,-77.05,70.0,78,0,11.5,clear sky
596,San Jose Del Guaviare,CO,2.5729,-72.6459,72.64,96,93,7.07,overcast clouds
597,Amapa,BR,1.0,-52.0,72.21,99,100,2.68,overcast clouds
598,Mehamn,NO,71.0357,27.8492,27.77,78,94,7.09,overcast clouds
599,Guaranda,EC,-1.6,-79.0,57.07,99,100,2.55,light rain
600,Jalu,LY,29.0331,21.5482,57.06,43,25,8.63,scattered clouds
601,Srandakan,ID,-7.9386,110.2506,79.12,84,82,2.26,broken clouds
602,Pontianak,ID,-0.0333,109.3333,75.2,100,75,2.46,moderate rain
603,Okhotsk,RU,59.3833,143.3,13.73,79,63,9.55,broken clouds
604,Falciu,RO,46.2961,28.1408,43.05,60,100,18.07,overcast clouds
605,Gizo,SB,-8.103,156.8419,84.87,68,54,7.23,broken clouds
606,Gweru,ZW,-19.45,29.8167,57.22,93,17,14.38,few clouds
607,Kuandian,CN,40.7286,124.7847,42.66,40,2,9.66,clear sky
608,Black River,JM,18.0264,-77.8487,80.6,69,20,18.41,few clouds
609,Axim,GH,4.8699,-2.2405,78.8,88,13,6.58,few clouds
610,Borogontsy,RU,62.6683,131.1683,19.36,91,97,2.68,overcast clouds
611,Sterling,US,39.0062,-77.4286,57.99,58,90,20.71,overcast clouds
612,Kobryn,BY,52.2138,24.3564,34.14,78,20,5.01,few clouds
613,Jiaojiang,CN,28.6803,121.4428,66.0,93,26,3.78,scattered clouds
614,Adzope,CI,6.1069,-3.8619,74.32,96,76,3.42,broken clouds
615,Zuenoula,CI,7.4292,-6.0431,73.36,91,47,6.02,scattered clouds
616,Asasa,ET,7.1,39.2,54.36,52,96,0.09,overcast clouds
617,Ozinki,RU,51.1786,49.6769,31.05,98,100,14.43,light snow
618,Jalingo,NG,8.8833,11.3667,80.94,17,5,4.05,clear sky
619,Olafsvik,IS,64.8945,-23.7142,29.46,63,100,16.31,overcast clouds
620,Maniitsoq,GL,65.4167,-52.9,1.56,62,23,9.22,few clouds
621,Berezayka,RU,57.9883,33.9036,31.89,97,98,5.59,overcast clouds
622,Newport,GB,51.5877,-2.9984,52.0,90,99,1.01,overcast clouds
623,Sambava,MG,-14.2667,50.1667,76.77,91,100,4.9,light rain
624,Podgornoye,RU,51.735,39.1496,24.8,93,0,4.47,clear sky
625,Genhe,CN,50.7833,121.5167,30.69,85,100,7.65,light snow
626,Kyshtovka,RU,56.555,76.6271,27.25,97,100,4.56,light snow
627,Mawlaik,MM,23.6333,94.4167,71.24,24,100,0.78,overcast clouds
628,Sobolevo,RU,54.4299,31.8996,35.06,94,99,5.57,overcast clouds
629,Tikapur,NP,28.5,81.1333,69.15,22,2,4.23,clear sky
630,Nkhotakota,MW,-12.9274,34.2961,71.51,87,99,10.54,overcast clouds
631,Vista Hermosa,MX,19.5167,-99.2167,69.8,37,20,23.02,dust
632,Liuzhou,CN,24.3126,109.3892,75.09,83,47,7.92,scattered clouds
633,Karasburg,NA,-28.0167,18.75,70.95,28,0,2.55,clear sky
634,Kapit,MY,2.0167,112.9333,76.3,96,99,0.81,light rain
635,Tomarovka,RU,50.6834,36.2331,35.6,64,0,6.71,clear sky
636,Totness,SR,5.8833,-56.3167,77.27,88,99,13.85,light rain
637,Nehe,CN,48.4833,124.8333,38.75,94,100,8.77,light rain
638,Sao Joao Da Barra,BR,-21.6403,-41.0511,77.43,88,43,6.64,scattered clouds
639,Namatanai,PG,-3.6667,152.4333,84.76,67,85,7.78,overcast clouds
640,Little Current,CA,45.9793,-81.9248,34.0,93,100,12.66,overcast clouds
641,Peleduy,RU,59.6289,112.7406,18.0,92,98,1.66,overcast clouds
642,Taltal,CL,-25.4,-70.4833,64.8,75,20,3.58,few clouds
643,Pindiga,NG,9.9833,10.9333,78.04,17,0,15.39,clear sky
644,Zonguldak,TR,41.25,31.8333,35.4,82,26,5.82,scattered clouds
645,Bowen,AU,-20.0167,148.2333,84.2,61,40,16.11,scattered clouds
646,Qesarya,IL,32.5189,34.9046,53.01,76,0,3.44,clear sky
647,Kurtamysh,RU,54.9103,64.4319,23.29,92,31,13.24,scattered clouds
648,Padang,ID,-0.9492,100.3543,73.4,100,20,2.3,light rain
649,Joshimath,IN,30.5667,79.5667,54.25,63,37,2.59,scattered clouds
650,Tashara,RU,55.5195,83.5094,28.99,90,100,5.1,light snow
651,Coquimbo,CL,-29.9533,-71.3436,57.2,82,0,5.75,clear sky
652,Hengyang,CN,26.8881,112.615,73.44,78,22,4.83,few clouds
653,Yeppoon,AU,-23.1333,150.7333,84.2,61,20,6.91,few clouds
654,Taguatinga,BR,-12.3857,-46.5711,75.02,53,29,2.1,scattered clouds
655,Tromso,NO,69.6496,18.957,30.2,69,0,5.75,clear sky
656,Fuyang,CN,32.9,115.8167,60.53,79,0,9.8,clear sky
657,Astana,KZ,51.1801,71.446,17.6,86,0,13.42,clear sky
658,Sunrise Manor,US,36.2111,-115.0731,78.8,11,1,3.85,clear sky
659,Newcastle,AU,-32.9272,151.7765,75.0,68,40,1.14,scattered clouds
660,Linxia,CN,35.6003,103.2064,43.75,31,47,0.49,scattered clouds
661,Myitkyina,MM,25.3833,97.4,65.41,33,89,2.21,overcast clouds
662,Tocopilla,CL,-22.092,-70.1979,68.59,70,13,5.66,few clouds
663,Terrace,CA,54.5163,-128.6035,41.0,52,75,13.8,light snow
664,Nanortalik,GL,60.1432,-45.2371,21.92,69,1,19.24,clear sky
665,Chipata,ZM,-13.6333,32.65,62.91,92,100,6.29,overcast clouds
666,Ginda,IN,30.6945,78.4932,66.2,72,76,7.81,haze
667,Cairns,AU,-16.9167,145.7667,86.0,65,40,12.66,scattered clouds
668,Nefteyugansk,RU,61.0998,72.6035,5.0,85,0,6.71,clear sky
669,Tiznit,MA,29.5833,-9.5,62.62,54,32,2.1,scattered clouds
670,Lucea,JM,18.451,-78.1736,80.6,69,20,18.41,few clouds
671,Andenes,NO,69.3143,16.1194,33.8,75,97,10.36,overcast clouds
672,Rypefjord,NO,70.6333,23.6667,30.2,69,0,5.75,clear sky
673,Murakami,JP,38.2333,139.4833,59.0,88,75,11.5,broken clouds
674,Loreto,MX,22.2667,-101.9667,77.74,19,96,14.65,overcast clouds
675,Igrim,RU,63.1906,64.4162,0.54,95,52,5.28,broken clouds
676,Atambua,ID,-9.1061,124.8925,72.72,93,100,4.18,overcast clouds
677,Jackson,US,42.4165,-122.8345,69.8,19,1,20.71,clear sky
678,Lozova,UA,48.8894,36.3176,35.8,83,22,6.87,few clouds
679,Svetlaya,RU,46.5389,138.3297,32.81,97,100,19.71,snow
680,Bontang,ID,0.1333,117.5,78.49,88,99,2.98,light rain
681,Waling,NP,27.9833,83.7667,62.08,26,0,5.3,clear sky
682,Bonavista,CA,48.6499,-53.1147,23.0,80,34,3.44,scattered clouds
683,Tevaitoa,PF,-16.7833,-151.5,82.31,73,38,20.6,light rain
684,Barra,BR,-11.0894,-43.1417,81.97,45,59,3.04,broken clouds
685,Turayf,SA,31.6725,38.6637,44.6,53,0,4.61,clear sky
686,Penzance,GB,50.1186,-5.5371,50.0,87,90,21.85,overcast clouds
687,Orlik,RU,52.5178,99.825,12.87,77,100,1.23,overcast clouds
688,Dondo,MZ,-19.6094,34.7431,78.8,78,40,13.8,scattered clouds
689,San Andres,CO,12.5847,-81.7006,82.4,74,20,11.5,few clouds
